[
{"name":"Santa Rosa Wall","city":"Cozumel","country":"Mexico","latitude":20.3349,"longitude":-87.0275,"description":"","depth":130},
{"name":"Temple of Doom","city":"Tulum","country":"Mexico","latitude":20.2292,"longitude":-87.4573,"description":"","depth":50},
{"name":"Hol Chan","city":"Ambergris","country":"Belize","latitude":17.8718,"longitude":-87.9756,"description":"","depth":30},
{"name":"Eagle Ray Pass","city":"7 Mile Beach","country":"grand cayman","latitude":19.361,"longitude":-81.3994,"description":"","depth":2500},
{"name":"Eagle Ray Pass","city":"georgetown","country":"grand cayman","latitude":19.357,"longitude":-81.397,"description":"","depth":5000},
{"name":"Eagle Ray Pass","city":"7 Mile Beach","country":"grand cayman","latitude":19.3559,"longitude":-81.3963,"description":"","depth":2500},
{"name":"Sharm El-Sheik atoll","city":"Sharm El-sheik","country":"Egypt","latitude":27.9798,"longitude":34.4531,"description":"","depth":1000},
{"name":"Galapagos Islands","city":"Galapagos Islands","country":"Ecuador","latitude":-0.823141,"longitude":-91.0967,"description":"Galapagos Islands, Ecuador","depth":0},
{"name":"Cocos Island","city":"Cocos Island","country":"Costa Rica","latitude":5.52851,"longitude":-87.0639,"description":"Cocos Island, Costa Rica","depth":0},
{"name":"Truk Lagoon","city":"Chuuk Island","country":"Micronesia","latitude":7.35293,"longitude":151.725,"description":"Chuuk Island, Micronesia","depth":0},
{"name":"The Great Blue Hole","city":"Lighthouse Reef","country":"Belize","latitude":18.5473,"longitude":-87.3715,"description":"Lighthouse Reef, Belize","depth":0},
{"name":"The Yongala","city":"Great Barrier Reef","country":"Australia","latitude":-18.8127,"longitude":147.656,"description":"Great Barrier Reef, Australia","depth":0},
{"name":"Red Sea","city":"Eilat","country":"Israel","latitude":29.4994,"longitude":34.9585,"description":"Eilat, Israel","depth":0},
{"name":"Ambergris Caye","city":"Ambergris Caye","country":"Belize","latitude":17.9709,"longitude":-87.9016,"description":"Ambergris Caye, Belize","depth":0},
{"name":"Bikini Atoll","city":"Bikini Atoll","country":"Marshall Islands","latitude":7.48094,"longitude":168.549,"description":"Bikini Atoll, Marshall Islands","depth":0},
{"name":"The Maldives","city":"","country":"","latitude":-0.639939,"longitude":73.1607,"description":"The Maldives","depth":0},
{"name":"Similan Island","city":"Surin and Similan Islands","country":"Thailand","latitude":8.6299,"longitude":97.6355,"description":"Surin and Similan Islands, Thailand","depth":0},
{"name":"Sipadan Island","city":"Sipadan Island","country":"Malaysian Borneo","latitude":4.3738,"longitude":118.655,"description":"Sipadan Island, Malaysian Borneo","depth":0},
{"name":"Bazaruto Archipelago","city":"Bazaruto Archipelago","country":"Mozambique","latitude":-21.7876,"longitude":35.4941,"description":"Bazaruto Archipelago, Mozambique","depth":0},
{"name":"Beqa Lagoon","city":"Beqa Island","country":"Fiji","latitude":-18.3806,"longitude":178.158,"description":"Beqa Island, Fiji","depth":0},
{"name":"Solomon Islands","city":"","country":"","latitude":-9.3488,"longitude":160.318,"description":"Solomon Islands","depth":0},
{"name":"Walindi Plantation","city":"Kimbe Bay","country":"New Guinea","latitude":-5.50664,"longitude":150.117,"description":"Kimbe Bay, New Guinea","depth":0},
{"name":"Gladden Spit","city":"Placencia","country":"Belize","latitude":16.4703,"longitude":-88.19,"description":"Placencia, Belize","depth":0},
{"name":"Curaçao","city":"Curaçao","country":"Netherlands Antilles","latitude":12.1736,"longitude":-69.0161,"description":"Curaçao, Netherlands Antilles","depth":0},
{"name":"Bonaire","city":"Bonaire","country":"Netherlands Antilles","latitude":12.1608,"longitude":-68.3044,"description":"Bonaire, Netherlands Antilles","depth":0},
{"name":"Blue Corner","city":"Palau","country":"Micronesia","latitude":7.05319,"longitude":134.212,"description":"Palau, Micronesia","depth":0},
{"name":"Bali","city":"Bali","country":"Indonesia","latitude":-8.4289,"longitude":115.17,"description":"Bali, Indonesia","depth":0},
{"name":"Rocktail/Sodwana Bay","city":"Rocktail Bay","country":"Kwazulu-Natal","latitude":-27.0273,"longitude":32.8766,"description":"Rocktail Bay, Kwazulu-Natal, South Africa","depth":0},
{"name":"Great White Shark Alley","city":"btw Gansbaai and Dyer Island","country":"South Africa ","latitude":-34.7552,"longitude":19.3469,"description":"btw Gansbaai and Dyer Island, South Africa ","depth":0},
{"name":"Tuamotu Archipelago","city":"Rangiroa","country":"French Polynesia","latitude":-14.9504,"longitude":-147.651,"description":"Rangiroa, French Polynesia","depth":0},
{"name":"Cozumel","city":"Cozumel","country":"Mexico","latitude":20.4286,"longitude":-86.8792,"description":"Cozumel, Mexico","depth":0},
{"name":"Tobermory","city":"Tobermory","country":"ON","latitude":45.2561,"longitude":-81.6646,"description":"Tobermory, ON, Canada\n\nGeorgian Bay and Lake Huron&nbsp;","depth":0},
{"name":"King s Bay","city":"Crystal River","country":"FL","latitude":28.8931,"longitude":-82.6025,"description":"Crystal River, FL","depth":0},
{"name":"Grand Turk","city":"Grand Turk","country":"Turks & Caicos","latitude":21.6191,"longitude":-71.5182,"description":"Grand Turk, Turks & Caicos","depth":0},
{"name":"Phuket","city":"Phuket","country":"Thailand","latitude":7.97501,"longitude":98.3515,"description":"Phuket, Thailand","depth":0},
{"name":"Heron Island","city":"Queensland","country":"Australia","latitude":-23.4422,"longitude":151.916,"description":"Queensland, Australia","depth":0},
{"name":"Bora Bora","city":"Bora Bora","country":"French Polynesia","latitude":-16.5046,"longitude":-151.743,"description":"Bora Bora, French Polynesia","depth":0},
{"name":"Lake Baikal","city":"Lake Baikal","country":"Russia","latitude":53.1736,"longitude":107.662,"description":"Lake Baikal, Russia","depth":0},
{"name":"Vancouver Island","city":"British Columbia","country":"Canada","latitude":49.5933,"longitude":-125.848,"description":"British Columbia, Canada","depth":0},
{"name":"Rowley Shoals","city":"Broome","country":"Western Australia","latitude":-17.4555,"longitude":119.295,"description":"Broome, Western Australia","depth":0},
{"name":"Ningaloo Reef","city":"Exmouth","country":"Western Australia","latitude":-21.9227,"longitude":113.961,"description":"Exmouth, Western Australia","depth":0},
{"name":"Vanuatu","city":"","country":"","latitude":-15.5384,"longitude":167.036,"description":"Vanuatu","depth":0},
{"name":"Catalina Island","city":"Los Angeles","country":"CA","latitude":33.3821,"longitude":-118.416,"description":"Los Angeles, CA, USA","depth":0},
{"name":"Carmel & Monterey Bay","city":"Carmel & Monterey Bay","country":"California","latitude":36.5185,"longitude":-121.937,"description":"Carmel & Monterey Bay, California, USA","depth":0},
{"name":"Secret cavern ","city":"Ka","country":"Turkey","latitude":36.2,"longitude":29.64,"description":"Ka, Turkey","depth":0},
{"name":"Secret Bay ","city":"Lindos","country":"Rhodos Island","latitude":36.0624,"longitude":28.092,"description":"Lindos, Rhodos Island, Greece","depth":0},
{"name":"Anglesey","city":"Anglesey","country":"North Wales","latitude":53.3309,"longitude":-4.37256,"description":"Anglesey, North Wales, England","depth":0},
{"name":"Abrolhos Islands","city":"","country":"","latitude":-28.8447,"longitude":113.906,"description":"","depth":0},
{"name":"The Graveyard of the Atlantic","city":"Morehead City","country":"North Carolina","latitude":33.1191,"longitude":-76.4209,"description":"Morehead City, North Carolina, USA","depth":0},
{"name":"Neptune Island","city":"Port Lincoln","country":"Eyre Peninsula","latitude":-35.2294,"longitude":136.057,"description":"Port Lincoln, Eyre Peninsula, South Australia","depth":0},
{"name":"Farallon Islands","city":"California","country":"USA","latitude":37.6979,"longitude":-123.006,"description":"California, USA","depth":0},
{"name":"Isla Guadalupe","city":"Isla Guadalupe","country":"Mexico","latitude":29.0081,"longitude":-118.372,"description":"Isla Guadalupe, Mexico","depth":0},
{"name":"Ras Mohammed National Park","city":"Ras Mohammed National Park","country":"Red Sea","latitude":27.703,"longitude":34.2554,"description":"Ras Mohammed National Park, Red Sea, Egypt","depth":0},
{"name":"Coron Island","city":"Coron Island","country":"Philippines","latitude":12.0017,"longitude":120.185,"description":"Coron Island, Philippines","depth":0},
{"name":"Rarotonga","city":"Rarotonga","country":"Cook Islands","latitude":-21.2254,"longitude":-159.771,"description":"Rarotonga, Cook Islands","depth":0},
{"name":"Hoffman s Hangout","city":"NULL","country":"Cayman Islands","latitude":19.27,"longitude":-81.3925,"description":"","depth":0},
{"name":"Black Forest","city":"NULL","country":"Cayman Islands","latitude":19.2712,"longitude":-81.3955,"description":"","depth":0},
{"name":"Lone Star","city":"NULL","country":"Cayman Islands","latitude":19.3268,"longitude":-81.391,"description":"","depth":0},
{"name":"Sunset reef","city":"NULL","country":"Cayman Islands","latitude":19.2863,"longitude":-81.3914,"description":"","depth":0},
{"name":"Babylon","city":"NULL","country":"Cayman Islands","latitude":19.3533,"longitude":-81.1643,"description":"","depth":0},
{"name":"Snapper Hole","city":"NULL","country":"Cayman Islands","latitude":19.3442,"longitude":-81.0778,"description":"","depth":0},
{"name":"Scuba Bowl","city":"NULL","country":"Cayman Islands","latitude":19.2923,"longitude":-81.088,"description":"","depth":0},
{"name":"Three Sisters","city":"NULL","country":"Cayman Islands","latitude":19.2885,"longitude":-81.1177,"description":"","depth":0},
{"name":"High Rock Drop Off","city":"NULL","country":"Cayman Islands","latitude":19.2901,"longitude":-81.124,"description":"","depth":0},
{"name":"Fish Tank","city":"NULL","country":"Cayman Islands","latitude":19.3568,"longitude":-81.107,"description":"","depth":0},
{"name":"Chubb Hole","city":"NULL","country":"Cayman Islands","latitude":19.3505,"longitude":-81.0843,"description":"","depth":0},
{"name":"Grouper Grotto","city":"NULL","country":"Cayman Islands","latitude":19.2963,"longitude":-81.086,"description":"","depth":0},
{"name":"The Maze","city":"NULL","country":"Cayman Islands","latitude":19.294,"longitude":-81.0923,"description":"","depth":0},
{"name":"Lodge Anchor","city":"NULL","country":"Cayman Islands","latitude":19.2906,"longitude":-81.1124,"description":"","depth":0},
{"name":"Iron Shore Gardens","city":"NULL","country":"Cayman Islands","latitude":19.2914,"longitude":-81.1436,"description":"","depth":0},
{"name":"Maggie s Maze","city":"NULL","country":"Cayman Islands","latitude":19.2912,"longitude":-81.1448,"description":"","depth":0},
{"name":"Kelly s Caverns","city":"NULL","country":"Cayman Islands","latitude":19.2913,"longitude":-81.146,"description":"","depth":0},
{"name":"Little House on the Prairie","city":"NULL","country":"Cayman Islands","latitude":19.2912,"longitude":-81.1481,"description":"","depth":0},
{"name":"Tarpon Tap Room","city":"NULL","country":"Cayman Islands","latitude":19.2914,"longitude":-81.1502,"description":"","depth":0},
{"name":"Turtle Reef","city":"NULL","country":"Cayman Islands","latitude":19.3831,"longitude":-81.4168,"description":"","depth":0},
{"name":"L C M  David Nicholson","city":"NULL","country":"Cayman Islands","latitude":19.2873,"longitude":-81.3926,"description":"","depth":0},
{"name":"Devil s Grotto","city":"NULL","country":"Cayman Islands","latitude":19.2913,"longitude":-81.3883,"description":"","depth":0},
{"name":"Eden Rock","city":"NULL","country":"Cayman Islands","latitude":19.2931,"longitude":-81.3871,"description":"","depth":0},
{"name":"Sand Chute","city":"NULL","country":"Cayman Islands","latitude":19.3322,"longitude":-81.3928,"description":"","depth":0},
{"name":"Orange Canyon","city":"NULL","country":"Cayman Islands","latitude":19.3696,"longitude":-81.4192,"description":"","depth":0},
{"name":"Bonnie s Arch","city":"NULL","country":"Cayman Islands","latitude":19.37,"longitude":-81.4194,"description":"","depth":0},
{"name":"Cobalt Ridge","city":"NULL","country":"Cayman Islands","latitude":19.3937,"longitude":-81.4005,"description":"","depth":0},
{"name":"Sea Fans  1 to 3 ","city":"NULL","country":"Cayman Islands","latitude":19.3923,"longitude":-81.406,"description":"","depth":0},
{"name":"Bear s Paw","city":"NULL","country":"Cayman Islands","latitude":19.3978,"longitude":-81.3603,"description":"","depth":0},
{"name":"Ghost Mountain","city":"NULL","country":"Cayman Islands","latitude":19.4024,"longitude":-81.3855,"description":"","depth":0},
{"name":"Tarpon Alley","city":"NULL","country":"Cayman Islands","latitude":19.3854,"longitude":-81.3365,"description":"","depth":0},
{"name":"Hole in the Wall","city":"NULL","country":"Cayman Islands","latitude":19.3928,"longitude":-81.3454,"description":"","depth":0},
{"name":"Princess Penny s Wall","city":"NULL","country":"Cayman Islands","latitude":19.3845,"longitude":-81.3332,"description":"","depth":0},
{"name":"Eagle Ray Pass","city":"NULL","country":"Cayman Islands","latitude":19.3837,"longitude":-81.325,"description":"","depth":0},
{"name":"Leslie s curl","city":"NULL","country":"Cayman Islands","latitude":19.3842,"longitude":-81.3203,"description":"","depth":0},
{"name":"Stingray City  Sandbar ","city":"NULL","country":"Cayman Islands","latitude":19.3758,"longitude":-81.3048,"description":"","depth":0},
{"name":"Northwest Point","city":"NULL","country":"Cayman Islands","latitude":19.3694,"longitude":-81.4207,"description":"","depth":0},
{"name":"Pat s Wall","city":"NULL","country":"Cayman Islands","latitude":19.2931,"longitude":-81.0888,"description":"","depth":0},
{"name":"Stingray City","city":"NULL","country":"Cayman Islands","latitude":19.3847,"longitude":-81.3443,"description":"","depth":0},
{"name":"Oro Verde","city":"NULL","country":"Cayman Islands","latitude":19.3386,"longitude":-81.3907,"description":"","depth":0},
{"name":"Doc Poulson Wreck","city":"NULL","country":"Cayman Islands","latitude":19.3676,"longitude":-81.4093,"description":"","depth":0},
{"name":"Playa Corona","city":"NULL","country":"Mexico","latitude":20.4354,"longitude":-87.0029,"description":"","depth":0},
{"name":"La Francesa","city":"NULL","country":"Mexico","latitude":20.3503,"longitude":-87.0277,"description":"","depth":0},
{"name":"Pelicano Wreck","city":"NULL","country":"Mexico","latitude":20.4823,"longitude":-87.2367,"description":"","depth":0},
{"name":"Xpu-Ha Canyon","city":"NULL","country":"Mexico","latitude":20.469,"longitude":-87.2486,"description":"","depth":0},
{"name":"Sieto Cocos","city":"NULL","country":"Mexico","latitude":18.3421,"longitude":-87.8019,"description":"","depth":0},
{"name":"La Chiminea","city":"NULL","country":"Mexico","latitude":18.2318,"longitude":-87.8286,"description":"","depth":0},
{"name":"Barracuda Point","city":"NULL","country":"Mexico","latitude":20.5427,"longitude":-86.9372,"description":"","depth":0},
{"name":"Las Esponjas","city":"NULL","country":"Mexico","latitude":20.3921,"longitude":-87.3054,"description":"","depth":0},
{"name":"Halfmoon Bay","city":"NULL","country":"Mexico","latitude":20.4,"longitude":-87.3023,"description":"","depth":0},
{"name":"Las Gorgonians","city":"NULL","country":"Mexico","latitude":20.4363,"longitude":-87.2773,"description":"","depth":0},
{"name":"Yool Caanal","city":"NULL","country":"Mexico","latitude":20.4031,"longitude":-87.3021,"description":"","depth":0},
{"name":"Grouper Reef","city":"NULL","country":"Mexico","latitude":20.3849,"longitude":-87.31,"description":"","depth":0},
{"name":"Leon","city":"NULL","country":"Mexico","latitude":20.3959,"longitude":-87.3059,"description":"","depth":0},
{"name":"Herradura","city":"NULL","country":"Mexico","latitude":20.3883,"longitude":-87.3087,"description":"","depth":0},
{"name":"Motorcycle Reef","city":"NULL","country":"Mexico","latitude":20.3938,"longitude":-87.3074,"description":"","depth":0},
{"name":"La Inglacia","city":"NULL","country":"Mexico","latitude":20.3743,"longitude":-87.32,"description":"","depth":0},
{"name":"Yal Ku North","city":"NULL","country":"Mexico","latitude":20.4056,"longitude":-87.3017,"description":"","depth":0},
{"name":"Yal Ku Chicu","city":"NULL","country":"Mexico","latitude":20.4149,"longitude":-87.2953,"description":"","depth":0},
{"name":"Pared Verde","city":"NULL","country":"Mexico","latitude":20.6413,"longitude":-87.0509,"description":"","depth":0},
{"name":"Sitio de los tiburones toro","city":"NULL","country":"Mexico","latitude":20.6274,"longitude":-87.0591,"description":"","depth":0},
{"name":"Punta Gonzalez","city":"NULL","country":"Mexico","latitude":18.5133,"longitude":-87.4417,"description":"","depth":0},
{"name":"Kai Ha","city":"NULL","country":"Mexico","latitude":18.5678,"longitude":-87.424,"description":"","depth":0},
{"name":"Punta Isabel","city":"NULL","country":"Mexico","latitude":18.6065,"longitude":-87.4225,"description":"","depth":0},
{"name":"SS Far Star","city":"NULL","country":"Mexico","latitude":18.3927,"longitude":-87.3915,"description":"","depth":0},
{"name":"Ginger Scout","city":"NULL","country":"Mexico","latitude":18.6616,"longitude":-87.229,"description":"","depth":0},
{"name":"Cueva de Pargo","city":"NULL","country":"Mexico","latitude":20.6225,"longitude":-87.0131,"description":"","depth":0},
{"name":"Cenote Azul","city":"NULL","country":"Mexico","latitude":20.4883,"longitude":-87.2521,"description":"","depth":0},
{"name":"Tortuga Reef","city":"NULL","country":"Mexico","latitude":20.3923,"longitude":-87.3124,"description":"","depth":0},
{"name":"XCaret - Snorkeling Lagoon","city":"NULL","country":"Mexico","latitude":20.5784,"longitude":-87.1182,"description":"","depth":0},
{"name":"El Meco","city":"NULL","country":"Mexico","latitude":21.217,"longitude":-86.7953,"description":"","depth":0},
{"name":"Sleepy Shark Caves","city":"NULL","country":"Mexico","latitude":21.2831,"longitude":-86.7547,"description":"","depth":0},
{"name":"Coco Beach","city":"NULL","country":"Mexico","latitude":20.6103,"longitude":-87.0788,"description":"","depth":0},
{"name":"Neto s","city":"NULL","country":"Mexico","latitude":20.8317,"longitude":-86.8767,"description":"","depth":0},
{"name":"Rodman","city":"NULL","country":"Mexico","latitude":20.8828,"longitude":-86.8485,"description":"","depth":0},
{"name":"Esquela","city":"NULL","country":"Mexico","latitude":20.4963,"longitude":-87.2197,"description":"","depth":0},
{"name":"Tarpon Hole","city":"NULL","country":"Mexico","latitude":18.2609,"longitude":-87.8251,"description":"","depth":0},
{"name":"Cenote Taj Mahal","city":"NULL","country":"Mexico","latitude":20.4714,"longitude":-87.3069,"description":"","depth":0},
{"name":"Punta Tunich","city":"NULL","country":"Mexico","latitude":20.3928,"longitude":-87.0255,"description":"","depth":0},
{"name":"Cordona Reef","city":"NULL","country":"Mexico","latitude":20.3844,"longitude":-87.0242,"description":"","depth":0},
{"name":"Mamitas","city":"NULL","country":"Mexico","latitude":20.6262,"longitude":-87.0632,"description":"","depth":0},
{"name":"La Pared","city":"NULL","country":"Mexico","latitude":20.8244,"longitude":-86.8764,"description":"","depth":0},
{"name":"Cozumel plane wreck","city":"NULL","country":"Mexico","latitude":20.48,"longitude":-86.9737,"description":"","depth":0},
{"name":"Chac Mool Cenote","city":"NULL","country":"Mexico","latitude":20.5128,"longitude":-87.2469,"description":"","depth":0},
{"name":"Rio Bermejo","city":"NULL","country":"Mexico","latitude":18.6842,"longitude":-87.7108,"description":"","depth":0},
{"name":"Jardin","city":"NULL","country":"Mexico","latitude":18.711,"longitude":-87.7043,"description":"","depth":0},
{"name":"Faro Nuevo","city":"NULL","country":"Mexico","latitude":18.7244,"longitude":-87.6957,"description":"","depth":0},
{"name":"Escalones","city":"NULL","country":"Mexico","latitude":18.7221,"longitude":-87.6986,"description":"","depth":0},
{"name":"Yucab Reef","city":"NULL","country":"Mexico","latitude":20.4055,"longitude":-87.0212,"description":"","depth":0},
{"name":"Sleeping Sharks Cave","city":"NULL","country":"Mexico","latitude":21.2874,"longitude":-86.756,"description":"","depth":0},
{"name":"Ultrafreeze Wreck","city":"NULL","country":"Mexico","latitude":21.1644,"longitude":-86.6838,"description":"","depth":0},
{"name":"La Boya de los Locos","city":"NULL","country":"Mexico","latitude":21.0361,"longitude":-86.7699,"description":"","depth":0},
{"name":"C-58 Wreck","city":"NULL","country":"Mexico","latitude":21.1184,"longitude":-86.7253,"description":"","depth":0},
{"name":"San Toribio","city":"NULL","country":"Mexico","latitude":21.1228,"longitude":-86.7213,"description":"","depth":0},
{"name":"Aristos","city":"NULL","country":"Mexico","latitude":21.121,"longitude":-86.7415,"description":"","depth":0},
{"name":"Cuevas de Afuera","city":"NULL","country":"Mexico","latitude":21.1283,"longitude":-86.7155,"description":"","depth":0},
{"name":"Punta Negra","city":"NULL","country":"Mexico","latitude":21.1279,"longitude":-86.731,"description":"","depth":0},
{"name":"Grampin","city":"NULL","country":"Mexico","latitude":21.1408,"longitude":-86.7366,"description":"","depth":0},
{"name":"Chitales","city":"NULL","country":"Mexico","latitude":21.1658,"longitude":-86.7356,"description":"","depth":0},
{"name":"El Tunel","city":"NULL","country":"Mexico","latitude":21.1467,"longitude":-86.7271,"description":"","depth":0},
{"name":"Santo Remedio","city":"NULL","country":"Mexico","latitude":21.1682,"longitude":-86.7303,"description":"","depth":0},
{"name":"Bandera","city":"NULL","country":"Mexico","latitude":21.1873,"longitude":-86.7248,"description":"","depth":0},
{"name":"Manchones","city":"NULL","country":"Mexico","latitude":21.2024,"longitude":-86.7167,"description":"","depth":0},
{"name":"Herradura","city":"NULL","country":"Mexico","latitude":21.1102,"longitude":-86.7435,"description":"","depth":0},
{"name":"Jardines","city":"NULL","country":"Mexico","latitude":20.624,"longitude":-87.0189,"description":"","depth":0},
{"name":"Chikin Ha Cenote","city":"NULL","country":"Mexico","latitude":20.4993,"longitude":-87.2603,"description":"","depth":0},
{"name":"Las Palmas Shallows","city":"NULL","country":"Mexico","latitude":20.458,"longitude":-86.9905,"description":"","depth":0},
{"name":"Angelita Cenote","city":"NULL","country":"Mexico","latitude":20.1376,"longitude":-87.578,"description":"","depth":0},
{"name":"Chankanaab Bolones","city":"NULL","country":"Mexico","latitude":20.4363,"longitude":-87.0115,"description":"","depth":0},
{"name":"San Francisco","city":"NULL","country":"Mexico","latitude":20.3707,"longitude":-87.0268,"description":"","depth":0},
{"name":"Cenote PonDeRosa","city":"NULL","country":"Mexico","latitude":20.4917,"longitude":-87.2582,"description":"","depth":0},
{"name":"Gran Cenote","city":"NULL","country":"Mexico","latitude":20.2465,"longitude":-87.464,"description":"","depth":0},
{"name":"Cenote Carwash","city":"NULL","country":"Mexico","latitude":20.2741,"longitude":-87.4862,"description":"","depth":0},
{"name":"Punta Sur - Devil s Throat","city":"NULL","country":"Mexico","latitude":20.2962,"longitude":-87.0205,"description":"","depth":0},
{"name":"Palancar Horseshoe","city":"NULL","country":"Mexico","latitude":20.3266,"longitude":-87.0327,"description":"","depth":0},
{"name":"Columbia Deep","city":"NULL","country":"Mexico","latitude":20.3164,"longitude":-87.0264,"description":"","depth":0},
{"name":"Paso del Cedral","city":"NULL","country":"Mexico","latitude":20.3543,"longitude":-87.0283,"description":"","depth":0},
{"name":"Villa Blanca","city":"NULL","country":"Mexico","latitude":20.5161,"longitude":-86.9543,"description":"","depth":0},
{"name":"Punta Dalila","city":"NULL","country":"Mexico","latitude":20.3454,"longitude":-87.0229,"description":"","depth":0},
{"name":"Tortugas Reef","city":"NULL","country":"Mexico","latitude":20.5823,"longitude":-87.1085,"description":"","depth":0},
{"name":"Palancar Deep","city":"NULL","country":"Mexico","latitude":20.3331,"longitude":-87.0252,"description":"","depth":0},
{"name":"Paraiso Bajo","city":"NULL","country":"Mexico","latitude":20.4719,"longitude":-86.9815,"description":"","depth":0},
{"name":"Santa Rosa Wall","city":"NULL","country":"Mexico","latitude":20.3655,"longitude":-87.0274,"description":"","depth":0},
{"name":"Cenote Dos Ojos","city":"NULL","country":"Mexico","latitude":20.3248,"longitude":-87.3911,"description":"","depth":0},
{"name":"Columbia Reef","city":"NULL","country":"Mexico","latitude":20.3165,"longitude":-87.0169,"description":"","depth":0},
{"name":"Punta Sur","city":"NULL","country":"Mexico","latitude":20.3019,"longitude":-87.0187,"description":"","depth":0},
{"name":"Tormentos Reef","city":"NULL","country":"Mexico","latitude":20.4408,"longitude":-87.0046,"description":"","depth":0},
{"name":"C-53 Xicotencatl","city":"NULL","country":"Mexico","latitude":20.4452,"longitude":-87.0005,"description":"","depth":0},
{"name":"White Shark Alley","city":"Guadalupe Island","country":"Mexico","latitude":28.9455,"longitude":-118.297,"description":"Good place to dive if you want to be dinner.","depth":0}
]
